{
  "cities": [
    {
      "cityName": "Lisbon",
      "country": "Portugal",
      "emoji": "ðŸ‡µðŸ‡¹",
      "date": "2027-10-31T15:59:59.138Z",
      "notes": "My favorite city so far!",
      "position": {
        "lat": 38.727881642324164,
        "lng": -9.140900099907554
      },
      "id": 73930385
    },
    {
      "cityName": "Madrid",
      "country": "Spain",
      "emoji": "ðŸ‡ªðŸ‡¸",
      "date": "2027-07-15T08:22:53.976Z",
      "notes": "",
      "position": {
        "lat": 40.46635901755316,
        "lng": -3.7133789062500004
      },
      "id": 17806751
    },
    {
      "id": 98443198,
      "cityName": "Bondoukou",
      "country": "",
      "emoji": "ðŸ‡¨ðŸ‡®",
      "date": "2023-12-10T06:30:39.838Z",
      "notes": "",
      "position": {
        "lat": 8.124491290861204,
        "lng": -2.83447265625
      }
    },
    {
      "id": 98443200,
      "cityName": "Bougouni",
      "country": "",
      "emoji": "ðŸ‡²ðŸ‡±",
      "date": "2023-12-10T06:30:46.697Z",
      "notes": "",
      "position": {
        "lat": 12.254127737657381,
        "lng": -7.27294921875
      }
    },
    {
      "id": 98443201,
      "cityName": "Tinerkouk",
      "country": "",
      "emoji": "ðŸ‡©ðŸ‡¿",
      "date": "2023-12-10T21:56:31.878Z",
      "notes": "",
      "position": {
        "lat": 29.99300228455108,
        "lng": 0.8789062500000001
      }
    }
  ]
}